"","artist.name","title","song.hotttnesss","artist.familiarity","sa.hf","youtube","artist.longitude","artist.latitude"
"49","Britney Spears feat. Pharrell Williams","Boys",0.563246899280654,0.153605548145432,3.66683955157258,"<br><iframe width=\""200\"" height=\""150\"" src=\""http://www.youtube.com/embed?autoplay=1&listType=search&list=Britney Spears feat. Pharrell Williams Boys\"" frameborder=\""0\"" allowfullscreen></iframe>",241.75468,34.05349
"112","The Lord Weird Slough Feg","Beast In the Broch",0.542035896749067,0.507016080718629,1.06907042471079,"<br><iframe width=\""200\"" height=\""150\"" src=\""http://www.youtube.com/embed?autoplay=1&listType=search&list=The Lord Weird Slough Feg Beast In the Broch\"" frameborder=\""0\"" allowfullscreen></iframe>",237.57995,37.77916
"114","The Lord Weird Slough Feg","Baltech's Lament",0.556914018700354,0.507016080718629,1.09841490216839,"<br><iframe width=\""200\"" height=\""150\"" src=\""http://www.youtube.com/embed?autoplay=1&listType=search&list=The Lord Weird Slough Feg Baltech's Lament\"" frameborder=\""0\"" allowfullscreen></iframe>",237.57995,37.77916
"202","Mouth Of The Architect","Harboring An Apparition",0.690970954280596,0.582034795953404,1.18716433980334,"<br><iframe width=\""200\"" height=\""150\"" src=\""http://www.youtube.com/embed?autoplay=1&listType=search&list=Mouth Of The Architect Harboring An Apparition\"" frameborder=\""0\"" allowfullscreen></iframe>",275.80556,39.75911
"243","Gene Pitney","Every Breath I Take",0.732924130048343,0.556410013089321,1.31723749178951,"<br><iframe width=\""200\"" height=\""150\"" src=\""http://www.youtube.com/embed?autoplay=1&listType=search&list=Gene Pitney Every Breath I Take\"" frameborder=\""0\"" allowfullscreen></iframe>",287.32593,41.76332
"255","Agnostic Front","Come Alive",0.704649755854372,0.701441758982413,1.00457343297698,"<br><iframe width=\""200\"" height=\""150\"" src=\""http://www.youtube.com/embed?autoplay=1&listType=search&list=Agnostic Front Come Alive\"" frameborder=\""0\"" allowfullscreen></iframe>",285.99288,40.71455
"271","Marvin Hamlisch","Ride To Atlantis",0.58275602626139,0.492199331333622,1.18398378291658,"<br><iframe width=\""200\"" height=\""150\"" src=\""http://www.youtube.com/embed?autoplay=1&listType=search&list=Marvin Hamlisch Ride To Atlantis\"" frameborder=\""0\"" allowfullscreen></iframe>",285.99288,40.71455
"273","Marvin Hamlisch","Anya",0.548842617563788,0.492199331333622,1.11508200565143,"<br><iframe width=\""200\"" height=\""150\"" src=\""http://www.youtube.com/embed?autoplay=1&listType=search&list=Marvin Hamlisch Anya\"" frameborder=\""0\"" allowfullscreen></iframe>",285.99288,40.71455
"338","Rhian Benson","Say How I Feel",0.576399981255411,0.491835959058383,1.17193542001062,"<br><iframe width=\""200\"" height=\""150\"" src=\""http://www.youtube.com/embed?autoplay=1&listType=search&list=Rhian Benson Say How I Feel\"" frameborder=\""0\"" allowfullscreen></iframe>",358.96818,7.95501
"401","Ricardo Lemvo","Yiri Yiri Bon",0.468333834974025,0.424849475019799,1.10235239187291,"<br><iframe width=\""200\"" height=\""150\"" src=\""http://www.youtube.com/embed?autoplay=1&listType=search&list=Ricardo Lemvo Yiri Yiri Bon\"" frameborder=\""0\"" allowfullscreen></iframe>",264.63022,29.76045
"468","Bob Neuwirth","Biding Her Time",0.480610618387753,0.434272037449513,1.10670404019192,"<br><iframe width=\""200\"" height=\""150\"" src=\""http://www.youtube.com/embed?autoplay=1&listType=search&list=Bob Neuwirth Biding Her Time\"" frameborder=\""0\"" allowfullscreen></iframe>",285.99288,40.71455
"520","First Blood","Execution",0.74644197927874,0.662374025887687,1.12691915761399,"<br><iframe width=\""200\"" height=\""150\"" src=\""http://www.youtube.com/embed?autoplay=1&listType=search&list=First Blood Execution\"" frameborder=\""0\"" allowfullscreen></iframe>",237.57995,37.77916
"595","Vince Guaraldi","Peppermint Patty (LP Version)",0.673074434949705,0.578103629719863,1.16427989783746,"<br><iframe width=\""200\"" height=\""150\"" src=\""http://www.youtube.com/embed?autoplay=1&listType=search&list=Vince Guaraldi Peppermint Patty (LP Version)\"" frameborder=\""0\"" allowfullscreen></iframe>",237.57995,37.77916
"647","John Doan","In John Fahey There Is No East or West (feat. John Doan)",0.537317923116206,0.535822609777769,1.00279068727439,"<br><iframe width=\""200\"" height=\""150\"" src=\""http://www.youtube.com/embed?autoplay=1&listType=search&list=John Doan In John Fahey There Is No East or West (feat. John Doan)\"" frameborder=\""0\"" allowfullscreen></iframe>",239.48516,44.11559
"686","Patton Oswalt","You Are Allowed 20 Birthday Parties (Album)",0.618047725796724,0.592797346266531,1.04259529785216,"<br><iframe width=\""200\"" height=\""150\"" src=\""http://www.youtube.com/embed?autoplay=1&listType=search&list=Patton Oswalt You Are Allowed 20 Birthday Parties (Album)\"" frameborder=\""0\"" allowfullscreen></iframe>",283.70229,36.83264
"706","Ms. Dynamite","Natural High (Interlude)",0.606807292841299,0.589694605246746,1.02901957630661,"<br><iframe width=\""200\"" height=\""150\"" src=\""http://www.youtube.com/embed?autoplay=1&listType=search&list=Ms. Dynamite Natural High (Interlude)\"" frameborder=\""0\"" allowfullscreen></iframe>",359.87286,51.50632
"734","Otis Spann","Evil Ways",0.680655631141052,0.53446435222876,1.27352858671053,"<br><iframe width=\""200\"" height=\""150\"" src=\""http://www.youtube.com/embed?autoplay=1&listType=search&list=Otis Spann Evil Ways\"" frameborder=\""0\"" allowfullscreen></iframe>",269.81951,32.29869
"782","Basic Channel","Q Loop",0.593934981131075,0.553637086196396,1.07278756416326,"<br><iframe width=\""200\"" height=\""150\"" src=\""http://www.youtube.com/embed?autoplay=1&listType=search&list=Basic Channel Q Loop\"" frameborder=\""0\"" allowfullscreen></iframe>",13.37698,52.51607
"826","Francis Dunnery","Too Much Saturn",0.610474257771525,0.548585130198109,1.11281590434481,"<br><iframe width=\""200\"" height=\""150\"" src=\""http://www.youtube.com/embed?autoplay=1&listType=search&list=Francis Dunnery Too Much Saturn\"" frameborder=\""0\"" allowfullscreen></iframe>",356.46556,54.48303
"980","Wilshire","Special",0.495293621292163,0.450562133115631,1.09927928889011,"<br><iframe width=\""200\"" height=\""150\"" src=\""http://www.youtube.com/embed?autoplay=1&listType=search&list=Wilshire Special\"" frameborder=\""0\"" allowfullscreen></iframe>",280.2053,36.06899
"987","Lighthouse Family","Ocean Drive",0.84861676091779,0.663229687566787,1.27952167526025,"<br><iframe width=\""200\"" height=\""150\"" src=\""http://www.youtube.com/embed?autoplay=1&listType=search&list=Lighthouse Family Ocean Drive\"" frameborder=\""0\"" allowfullscreen></iframe>",358.38763,54.97791
"988","Lighthouse Family","Run",0.793987460441772,0.663229687566787,1.19715307581405,"<br><iframe width=\""200\"" height=\""150\"" src=\""http://www.youtube.com/embed?autoplay=1&listType=search&list=Lighthouse Family Run\"" frameborder=\""0\"" allowfullscreen></iframe>",358.38763,54.97791
"1075","Les Rythmes Digitales feat. Nik Kershaw","Sometimes",0.699913603349083,0.590816513592266,1.18465477393902,"<br><iframe width=\""200\"" height=\""150\"" src=\""http://www.youtube.com/embed?autoplay=1&listType=search&list=Les Rythmes Digitales feat. Nik Kershaw Sometimes\"" frameborder=\""0\"" allowfullscreen></iframe>",2.34121,48.85692
"1076","Radio Moscow","Broke Down",0.721199658390565,0.61656608065897,1.16970375279121,"<br><iframe width=\""200\"" height=\""150\"" src=\""http://www.youtube.com/embed?autoplay=1&listType=search&list=Radio Moscow Broke Down\"" frameborder=\""0\"" allowfullscreen></iframe>",266.3798,42.02534
"1078","Sinch","Plasma (Album Version)",0.611214622611139,0.537950519087611,1.13619115685173,"<br><iframe width=\""200\"" height=\""150\"" src=\""http://www.youtube.com/embed?autoplay=1&listType=search&list=Sinch Plasma (Album Version)\"" frameborder=\""0\"" allowfullscreen></iframe>",282.39546,40.99471
"1109","Kix","Contrary Mary  (LP Version)",0.239629097773637,0.233440455815421,1.02651058033878,"<br><iframe width=\""200\"" height=\""150\"" src=\""http://www.youtube.com/embed?autoplay=1&listType=search&list=Kix Contrary Mary  (LP Version)\"" frameborder=\""0\"" allowfullscreen></iframe>",282.28242,39.6425
"1183","SUE THOMPSON","James (Hold The Ladder Steady)",0.495293621292163,0.435415818155069,1.13751866753672,"<br><iframe width=\""200\"" height=\""150\"" src=\""http://www.youtube.com/embed?autoplay=1&listType=search&list=SUE THOMPSON James (Hold The Ladder Steady)\"" frameborder=\""0\"" allowfullscreen></iframe>",265.64132,37.83721
"1262","Strata","Night Falls (The Weight Of It)",0.755262765181422,0.612837503827415,1.23240297870888,"<br><iframe width=\""200\"" height=\""150\"" src=\""http://www.youtube.com/embed?autoplay=1&listType=search&list=Strata Night Falls (The Weight Of It)\"" frameborder=\""0\"" allowfullscreen></iframe>",238.05514,37.28848
"1334","Buddy Johnson","Did You See Jackie Robinson Hit That Ball?",0.501726081745458,0.382082404827719,1.31313579323729,"<br><iframe width=\""200\"" height=\""150\"" src=\""http://www.youtube.com/embed?autoplay=1&listType=search&list=Buddy Johnson Did You See Jackie Robinson Hit That Ball?\"" frameborder=\""0\"" allowfullscreen></iframe>",280.12838,34.30246
"1390","Judas Iscariot","Babylon",0.566312580926367,0.544161995405788,1.04070586646548,"<br><iframe width=\""200\"" height=\""150\"" src=\""http://www.youtube.com/embed?autoplay=1&listType=search&list=Judas Iscariot Babylon\"" frameborder=\""0\"" allowfullscreen></iframe>",271.2507,41.9293
"1447","Chris Clark","Tyre",0.611302923183568,0.597281477904486,1.02347543963405,"<br><iframe width=\""200\"" height=\""150\"" src=\""http://www.youtube.com/embed?autoplay=1&listType=search&list=Chris Clark Tyre\"" frameborder=\""0\"" allowfullscreen></iframe>",241.75468,34.05349
"1448","Chris Clark","Gavel Obliterated",0.601644709829397,0.597281477904486,1.00730515190295,"<br><iframe width=\""200\"" height=\""150\"" src=\""http://www.youtube.com/embed?autoplay=1&listType=search&list=Chris Clark Gavel Obliterated\"" frameborder=\""0\"" allowfullscreen></iframe>",241.75468,34.05349
"1475","Britt Nicole","Set The World On Fire",0.683373248366087,0.669500125220809,1.02072161396639,"<br><iframe width=\""200\"" height=\""150\"" src=\""http://www.youtube.com/embed?autoplay=1&listType=search&list=Britt Nicole Set The World On Fire\"" frameborder=\""0\"" allowfullscreen></iframe>",279.53065,35.66693
"1511","Eastmountainsouth","Hard Times",0.733990878524206,0.583290824134981,1.2583617779565,"<br><iframe width=\""200\"" height=\""150\"" src=\""http://www.youtube.com/embed?autoplay=1&listType=search&list=Eastmountainsouth Hard Times\"" frameborder=\""0\"" allowfullscreen></iframe>",241.75468,34.05349
"1733","32 Leaves","Way Beyond",0.662493160819622,0.646880870624146,1.02413472233367,"<br><iframe width=\""200\"" height=\""150\"" src=\""http://www.youtube.com/embed?autoplay=1&listType=search&list=32 Leaves Way Beyond\"" frameborder=\""0\"" allowfullscreen></iframe>",248.0693,34.16788
"1770","Suzi Quatro","Mama's Boy",0.637783285651848,0.627361447084832,1.01661217566914,"<br><iframe width=\""200\"" height=\""150\"" src=\""http://www.youtube.com/embed?autoplay=1&listType=search&list=Suzi Quatro Mama's Boy\"" frameborder=\""0\"" allowfullscreen></iframe>",276.95208,42.33168
"1848","Johnny Pacheco","Mi Musica Es Para Ti",0.582918458497712,0.542232717105201,1.0750337264961,"<br><iframe width=\""200\"" height=\""150\"" src=\""http://www.youtube.com/embed?autoplay=1&listType=search&list=Johnny Pacheco Mi Musica Es Para Ti\"" frameborder=\""0\"" allowfullscreen></iframe>",289.29281,19.45565
"1962","Russell Malone","Sugar Buzz",0.48456252996793,0.449257552526908,1.07858516176844,"<br><iframe width=\""200\"" height=\""150\"" src=\""http://www.youtube.com/embed?autoplay=1&listType=search&list=Russell Malone Sugar Buzz\"" frameborder=\""0\"" allowfullscreen></iframe>",275.84399,31.58076
"1973","Tyrone Wells","Baby Don't You Change",0.722844727956539,0.689793071148974,1.04791532155072,"<br><iframe width=\""200\"" height=\""150\"" src=\""http://www.youtube.com/embed?autoplay=1&listType=search&list=Tyrone Wells Baby Don't You Change\"" frameborder=\""0\"" allowfullscreen></iframe>",241.75468,34.05349
"1974","Tyrone Wells","Need",0.724910420099134,0.689793071148974,1.05090997636678,"<br><iframe width=\""200\"" height=\""150\"" src=\""http://www.youtube.com/embed?autoplay=1&listType=search&list=Tyrone Wells Need\"" frameborder=\""0\"" allowfullscreen></iframe>",241.75468,34.05349
"2006","John Berry","She's Taken A Shine",0.606807292841299,0.566013953545302,1.07207126085935,"<br><iframe width=\""200\"" height=\""150\"" src=\""http://www.youtube.com/embed?autoplay=1&listType=search&list=John Berry She's Taken A Shine\"" frameborder=\""0\"" allowfullscreen></iframe>",278.27761,33.56173
"2019","Leon Russell","Out In The Woods",0.702259766574744,0.634226963390229,1.10726885974833,"<br><iframe width=\""200\"" height=\""150\"" src=\""http://www.youtube.com/embed?autoplay=1&listType=search&list=Leon Russell Out In The Woods\"" frameborder=\""0\"" allowfullscreen></iframe>",261.61017,34.60515
"2080","Mary Black","Katie",0.599710295638551,0.597113362831375,1.00434914535301,"<br><iframe width=\""200\"" height=\""150\"" src=\""http://www.youtube.com/embed?autoplay=1&listType=search&list=Mary Black Katie\"" frameborder=\""0\"" allowfullscreen></iframe>",351.75945,53.41961
"2086","Cass Fox","Touch Me",0.518340537882345,0.496378120336174,1.04424533766979,"<br><iframe width=\""200\"" height=\""150\"" src=\""http://www.youtube.com/embed?autoplay=1&listType=search&list=Cass Fox Touch Me\"" frameborder=\""0\"" allowfullscreen></iframe>",359.87286,51.50632
"2201","C.C. Adcock","Loaded Gun",0.492394196328965,0.423385846796091,1.16299163057784,"<br><iframe width=\""200\"" height=\""150\"" src=\""http://www.youtube.com/embed?autoplay=1&listType=search&list=C.C. Adcock Loaded Gun\"" frameborder=\""0\"" allowfullscreen></iframe>",268.47618,30.9742
"2202","C.C. Adcock","What I Like (Womens)",0.518950239745343,0.423385846796091,1.22571466115937,"<br><iframe width=\""200\"" height=\""150\"" src=\""http://www.youtube.com/embed?autoplay=1&listType=search&list=C.C. Adcock What I Like (Womens)\"" frameborder=\""0\"" allowfullscreen></iframe>",268.47618,30.9742
"2206","Motograter","Red (Main Version)",0.770578859880731,0.63231964076008,1.21865400061661,"<br><iframe width=\""200\"" height=\""150\"" src=\""http://www.youtube.com/embed?autoplay=1&listType=search&list=Motograter Red (Main Version)\"" frameborder=\""0\"" allowfullscreen></iframe>",240.30113,34.41925
"2249","The White Stripes","Blue Orchid",0.972386890817069,0.8788113434932,1.10647967623166,"<br><iframe width=\""200\"" height=\""150\"" src=\""http://www.youtube.com/embed?autoplay=1&listType=search&list=The White Stripes Blue Orchid\"" frameborder=\""0\"" allowfullscreen></iframe>",276.95208,42.33168
"2349","Inspiral Carpets","Commercial Reign",0.665172240762197,0.605109701914858,1.09925892554238,"<br><iframe width=\""200\"" height=\""150\"" src=\""http://www.youtube.com/embed?autoplay=1&listType=search&list=Inspiral Carpets Commercial Reign\"" frameborder=\""0\"" allowfullscreen></iframe>",357.75119,53.4796
"2352","Inspiral Carpets","Keep The Circle Around",0.64557891596693,0.605109701914858,1.06687913600461,"<br><iframe width=\""200\"" height=\""150\"" src=\""http://www.youtube.com/embed?autoplay=1&listType=search&list=Inspiral Carpets Keep The Circle Around\"" frameborder=\""0\"" allowfullscreen></iframe>",357.75119,53.4796
"2411","Willie Rosario","Un Tipo Como Yo",0.569275650675479,0.555966789433425,1.02393823065514,"<br><iframe width=\""200\"" height=\""150\"" src=\""http://www.youtube.com/embed?autoplay=1&listType=search&list=Willie Rosario Un Tipo Como Yo\"" frameborder=\""0\"" allowfullscreen></iframe>",293.57111,18.22328
"2424","The Strokes","Between Love & Hate",0.828400263956468,0.80704347985895,1.02646299069444,"<br><iframe width=\""200\"" height=\""150\"" src=\""http://www.youtube.com/embed?autoplay=1&listType=search&list=The Strokes Between Love & Hate\"" frameborder=\""0\"" allowfullscreen></iframe>",285.99288,40.71455
"2643","Jimmy Johnson","Country Preacher",0.51142432568646,0.505378203075287,1.01196356030866,"<br><iframe width=\""200\"" height=\""150\"" src=\""http://www.youtube.com/embed?autoplay=1&listType=search&list=Jimmy Johnson Country Preacher\"" frameborder=\""0\"" allowfullscreen></iframe>",270.49591,39.73926
"2719","Buddy Jewell","Sweet Southern Comfort",0.790803079677476,0.597220852724376,1.32413842562601,"<br><iframe width=\""200\"" height=\""150\"" src=\""http://www.youtube.com/embed?autoplay=1&listType=search&list=Buddy Jewell Sweet Southern Comfort\"" frameborder=\""0\"" allowfullscreen></iframe>",269.66922,35.61301
"2726","Whitesnake","Fool For Your Loving",0.85259137966186,0.82243282937005,1.03666992514746,"<br><iframe width=\""200\"" height=\""150\"" src=\""http://www.youtube.com/embed?autoplay=1&listType=search&list=Whitesnake Fool For Your Loving\"" frameborder=\""0\"" allowfullscreen></iframe>",359.87286,51.50632
"2811","MC5","Miss X (LP Version)",0.675696807289805,0.654860822343043,1.03181742476548,"<br><iframe width=\""200\"" height=\""150\"" src=\""http://www.youtube.com/embed?autoplay=1&listType=search&list=MC5 Miss X (LP Version)\"" frameborder=\""0\"" allowfullscreen></iframe>",276.81814,42.25147
"2845","M83","You Appearing",0.852088917765748,0.823548253021525,1.03465572859819,"<br><iframe width=\""200\"" height=\""150\"" src=\""http://www.youtube.com/embed?autoplay=1&listType=search&list=M83 You Appearing\"" frameborder=\""0\"" allowfullscreen></iframe>",7.12123,43.58015
"2944","Jay & The Americans","Let's Lock The Door (And Throw Away The Key)",0.557187767518634,0.547325146971606,1.01801967368318,"<br><iframe width=\""200\"" height=\""150\"" src=\""http://www.youtube.com/embed?autoplay=1&listType=search&list=Jay & The Americans Let's Lock The Door (And Throw Away The Key)\"" frameborder=\""0\"" allowfullscreen></iframe>",285.99288,40.71455
"2946","Jay & The Americans","Some Enchanted Evening",0.628296796060092,0.547325146971606,1.14794067025151,"<br><iframe width=\""200\"" height=\""150\"" src=\""http://www.youtube.com/embed?autoplay=1&listType=search&list=Jay & The Americans Some Enchanted Evening\"" frameborder=\""0\"" allowfullscreen></iframe>",285.99288,40.71455
"3133","Becoming The Archetype","End Of The Age",0.696230192726701,0.657826293472539,1.05838000036671,"<br><iframe width=\""200\"" height=\""150\"" src=\""http://www.youtube.com/embed?autoplay=1&listType=search&list=Becoming The Archetype End Of The Age\"" frameborder=\""0\"" allowfullscreen></iframe>",275.60889,33.74831
"3150","Major Lance","Um_ Um_ Um_ Um_ Um_ Um (Curious Mind)",0.678221626893764,0.552021062189785,1.22861548833546,"<br><iframe width=\""200\"" height=\""150\"" src=\""http://www.youtube.com/embed?autoplay=1&listType=search&list=Major Lance Um_ Um_ Um_ Um_ Um_ Um (Curious Mind)\"" frameborder=\""0\"" allowfullscreen></iframe>",272.36759,41.88415
"3185","Alexander O'Neal","Saturday Love",0.741621753898698,0.609123874817597,1.21752205841673,"<br><iframe width=\""200\"" height=\""150\"" src=\""http://www.youtube.com/embed?autoplay=1&listType=search&list=Alexander O'Neal Saturday Love\"" frameborder=\""0\"" allowfullscreen></iframe>",266.73507,44.97903
"3205","The Ronettes","Born To Be Together",0.629768364996027,0.567278592228696,1.11015711437624,"<br><iframe width=\""200\"" height=\""150\"" src=\""http://www.youtube.com/embed?autoplay=1&listType=search&list=The Ronettes Born To Be Together\"" frameborder=\""0\"" allowfullscreen></iframe>",285.99288,40.71455
"3268","RIDDLIN' KIDS","Stop The World",0.676548905600994,0.589072819804068,1.14849791546319,"<br><iframe width=\""200\"" height=\""150\"" src=\""http://www.youtube.com/embed?autoplay=1&listType=search&list=RIDDLIN' KIDS Stop The World\"" frameborder=\""0\"" allowfullscreen></iframe>",262.25702,30.2676
"3349","Jimmy Hughes","Neighbor_ Neighbor",0.576399981255411,0.452249985981235,1.27451630541195,"<br><iframe width=\""200\"" height=\""150\"" src=\""http://www.youtube.com/embed?autoplay=1&listType=search&list=Jimmy Hughes Neighbor_ Neighbor\"" frameborder=\""0\"" allowfullscreen></iframe>",272.32475,34.80046
"3389","Orbital","Adnans",0.754274011148442,0.69300920358103,1.08840403165042,"<br><iframe width=\""200\"" height=\""150\"" src=\""http://www.youtube.com/embed?autoplay=1&listType=search&list=Orbital Adnans\"" frameborder=\""0\"" allowfullscreen></iframe>",0.17898,51.27562
"3507","Public Image Ltd","The Suit",0.703402219510085,0.684994896580656,1.02687220448111,"<br><iframe width=\""200\"" height=\""150\"" src=\""http://www.youtube.com/embed?autoplay=1&listType=search&list=Public Image Ltd The Suit\"" frameborder=\""0\"" allowfullscreen></iframe>",359.87286,51.50632
"3508","Public Image Ltd","The Order Of Death",0.789938703581355,0.684994896580656,1.15320377936326,"<br><iframe width=\""200\"" height=\""150\"" src=\""http://www.youtube.com/embed?autoplay=1&listType=search&list=Public Image Ltd The Order Of Death\"" frameborder=\""0\"" allowfullscreen></iframe>",359.87286,51.50632
"3509","Public Image Ltd","This Is Not A Love Song",0.873618759789852,0.684994896580656,1.27536535549501,"<br><iframe width=\""200\"" height=\""150\"" src=\""http://www.youtube.com/embed?autoplay=1&listType=search&list=Public Image Ltd This Is Not A Love Song\"" frameborder=\""0\"" allowfullscreen></iframe>",359.87286,51.50632
"3540","Diamond D","Intro",0.720274942953518,0.605762456471112,1.18903859963442,"<br><iframe width=\""200\"" height=\""150\"" src=\""http://www.youtube.com/embed?autoplay=1&listType=search&list=Diamond D Intro\"" frameborder=\""0\"" allowfullscreen></iframe>",278.45894,27.9758
"3604","Brand X","Hate Zone",0.624833533555656,0.601305751486192,1.03912781810471,"<br><iframe width=\""200\"" height=\""150\"" src=\""http://www.youtube.com/embed?autoplay=1&listType=search&list=Brand X Hate Zone\"" frameborder=\""0\"" allowfullscreen></iframe>",270.41172,36.87652
"3683","Skeeter Davis","Santa Claus Is Coming To Town",0.473346541108788,0.0428482655036885,11.0470408905593,"<br><iframe width=\""200\"" height=\""150\"" src=\""http://www.youtube.com/embed?autoplay=1&listType=search&list=Skeeter Davis Santa Claus Is Coming To Town\"" frameborder=\""0\"" allowfullscreen></iframe>",275.40569,38.68193
"3868","The Radio Department","I Don't Like It Like This",0.78821071120189,0.739454873899643,1.0659348379775,"<br><iframe width=\""200\"" height=\""150\"" src=\""http://www.youtube.com/embed?autoplay=1&listType=search&list=The Radio Department I Don't Like It Like This\"" frameborder=\""0\"" allowfullscreen></iframe>",13.1876,55.70622
"3949","Paul Stanley","Move On",0.705023455930907,0.588382121993814,1.19824078532814,"<br><iframe width=\""200\"" height=\""150\"" src=\""http://www.youtube.com/embed?autoplay=1&listType=search&list=Paul Stanley Move On\"" frameborder=\""0\"" allowfullscreen></iframe>",286.16832,40.7038
"4019","Cauterize","Shooting Stars",0.714329037027886,0.537908276131679,1.32797554662092,"<br><iframe width=\""200\"" height=\""150\"" src=\""http://www.youtube.com/embed?autoplay=1&listType=search&list=Cauterize Shooting Stars\"" frameborder=\""0\"" allowfullscreen></iframe>",269.40761,43.72233
"4036","Kings Of Leon","Genius",0.910225075499961,0.845768866448544,1.07621019359825,"<br><iframe width=\""200\"" height=\""150\"" src=\""http://www.youtube.com/embed?autoplay=1&listType=search&list=Kings Of Leon Genius\"" frameborder=\""0\"" allowfullscreen></iframe>",273.22164,36.16778
"4106","The Rolling Stones","Angie (1993 Digital Remaster)",0.834492619890905,0.814829656133112,1.02413137962001,"<br><iframe width=\""200\"" height=\""150\"" src=\""http://www.youtube.com/embed?autoplay=1&listType=search&list=The Rolling Stones Angie (1993 Digital Remaster)\"" frameborder=\""0\"" allowfullscreen></iframe>",359.87286,51.50632
"4156","Pursuit Of Happiness","Hard To Laugh",0.5317220984213,0.508676201038482,1.04530563320197,"<br><iframe width=\""200\"" height=\""150\"" src=\""http://www.youtube.com/embed?autoplay=1&listType=search&list=Pursuit Of Happiness Hard To Laugh\"" frameborder=\""0\"" allowfullscreen></iframe>",280.61467,43.64856
"4160","Pursuit Of Happiness","She's So Young",0.565451012173698,0.508676201038482,1.11161287085834,"<br><iframe width=\""200\"" height=\""150\"" src=\""http://www.youtube.com/embed?autoplay=1&listType=search&list=Pursuit Of Happiness She's So Young\"" frameborder=\""0\"" allowfullscreen></iframe>",280.61467,43.64856
"4163","April Wine","Say Hello",0.754716331597099,0.656759787816968,1.14915125072705,"<br><iframe width=\""200\"" height=\""150\"" src=\""http://www.youtube.com/embed?autoplay=1&listType=search&list=April Wine Say Hello\"" frameborder=\""0\"" allowfullscreen></iframe>",296.42608,44.64616
"4298","Taking Back Sunday","Catholic Knees (Album Version)",0.637828866182213,0.548108773944928,1.16369030473922,"<br><iframe width=\""200\"" height=\""150\"" src=\""http://www.youtube.com/embed?autoplay=1&listType=search&list=Taking Back Sunday Catholic Knees (Album Version)\"" frameborder=\""0\"" allowfullscreen></iframe>",286.86415,40.85251
"4393","Fenton Robinson","Somebody Loan Me A Dime",0.642091037637501,0.438644698173761,1.46380667613392,"<br><iframe width=\""200\"" height=\""150\"" src=\""http://www.youtube.com/embed?autoplay=1&listType=search&list=Fenton Robinson Somebody Loan Me A Dime\"" frameborder=\""0\"" allowfullscreen></iframe>",269.69493,33.7621
"4405","Maria Muldaur","It Ain't The Meat It's The Motion",0.636287224427332,0.586950621729773,1.08405579766176,"<br><iframe width=\""200\"" height=\""150\"" src=\""http://www.youtube.com/embed?autoplay=1&listType=search&list=Maria Muldaur It Ain't The Meat It's The Motion\"" frameborder=\""0\"" allowfullscreen></iframe>",285.99288,40.71455
"4471","Y&T","Contagious",0.666532379094268,0.597794859355026,1.11498513020571,"<br><iframe width=\""200\"" height=\""150\"" src=\""http://www.youtube.com/embed?autoplay=1&listType=search&list=Y&T Contagious\"" frameborder=\""0\"" allowfullscreen></iframe>",238.05655,37.87869
"4504","Big Dee Irwin","Swinging On A Star",0.591291373387807,0.376377264756916,1.57100714829227,"<br><iframe width=\""200\"" height=\""150\"" src=\""http://www.youtube.com/embed?autoplay=1&listType=search&list=Big Dee Irwin Swinging On A Star\"" frameborder=\""0\"" allowfullscreen></iframe>",285.99288,40.71455
"4533","CNANAmplices","Ojos Gitanos",0.565451012173698,0.510783845598435,1.1070260288111,"<br><iframe width=\""200\"" height=\""150\"" src=\""http://www.youtube.com/embed?autoplay=1&listType=search&list=CNANAmplices Ojos Gitanos\"" frameborder=\""0\"" allowfullscreen></iframe>",319.22895,-19.59634
"4575","Kool Moe Dee","Way Way Back",0.59733904278285,0.545866608601614,1.09429489433893,"<br><iframe width=\""200\"" height=\""150\"" src=\""http://www.youtube.com/embed?autoplay=1&listType=search&list=Kool Moe Dee Way Way Back\"" frameborder=\""0\"" allowfullscreen></iframe>",286.0546,40.8079
"4584","Black Messiah","Gullveig",0.597108796072537,0.506776330413689,1.17824918062986,"<br><iframe width=\""200\"" height=\""150\"" src=\""http://www.youtube.com/embed?autoplay=1&listType=search&list=Black Messiah Gullveig\"" frameborder=\""0\"" allowfullscreen></iframe>",7.66379,51.42721
"4635","The Exciters","Reaching For The Best",0.676281394850989,0.546648693633608,1.23714078662789,"<br><iframe width=\""200\"" height=\""150\"" src=\""http://www.youtube.com/embed?autoplay=1&listType=search&list=The Exciters Reaching For The Best\"" frameborder=\""0\"" allowfullscreen></iframe>",4.82897,45.7594
"4704","Jeff Beck","A Day In The Life (Album Version)",0.771471753056627,0.747684012455079,1.03181523237796,"<br><iframe width=\""200\"" height=\""150\"" src=\""http://www.youtube.com/embed?autoplay=1&listType=search&list=Jeff Beck A Day In The Life (Album Version)\"" frameborder=\""0\"" allowfullscreen></iframe>",359.60465,51.27172
"4738","Sick Of It All","Death Or Jail",0.74842460448203,0.690626256119631,1.08368976396459,"<br><iframe width=\""200\"" height=\""150\"" src=\""http://www.youtube.com/embed?autoplay=1&listType=search&list=Sick Of It All Death Or Jail\"" frameborder=\""0\"" allowfullscreen></iframe>",285.99288,40.71455
"4810","Static-X","Transmission (Album Version)",0.791520553407542,0.768004234773589,1.03062003771488,"<br><iframe width=\""200\"" height=\""150\"" src=\""http://www.youtube.com/embed?autoplay=1&listType=search&list=Static-X Transmission (Album Version)\"" frameborder=\""0\"" allowfullscreen></iframe>",273.31927,32.61436
"4860","Eugene McDaniels","Headless Heroes (LP Version)",0.538785879926187,0.484732015452262,1.11151288289364,"<br><iframe width=\""200\"" height=\""150\"" src=\""http://www.youtube.com/embed?autoplay=1&listType=search&list=Eugene McDaniels Headless Heroes (LP Version)\"" frameborder=\""0\"" allowfullscreen></iframe>",265.41694,39.10295
"5134","The Irish Rovers","Up Among The Heather",0.723839028063869,0.589314501734856,1.22827289322254,"<br><iframe width=\""200\"" height=\""150\"" src=\""http://www.youtube.com/embed?autoplay=1&listType=search&list=The Irish Rovers Up Among The Heather\"" frameborder=\""0\"" allowfullscreen></iframe>",245.00007,54.49857
"5318","Barbara Carr","Don't Knock Love",0.513189736125819,0.385681279138231,1.33060577187592,"<br><iframe width=\""200\"" height=\""150\"" src=\""http://www.youtube.com/embed?autoplay=1&listType=search&list=Barbara Carr Don't Knock Love\"" frameborder=\""0\"" allowfullscreen></iframe>",269.80049,38.62774
"5516","Shamen","Phorever People",0.688895461034497,0.605880471065631,1.13701545755858,"<br><iframe width=\""200\"" height=\""150\"" src=\""http://www.youtube.com/embed?autoplay=1&listType=search&list=Shamen Phorever People\"" frameborder=\""0\"" allowfullscreen></iframe>",357.89321,57.15382
"5631","Chris Vickery","Jokers and Thieves",0.340922755864378,0.164853301203466,2.0680371783614,"<br><iframe width=\""200\"" height=\""150\"" src=\""http://www.youtube.com/embed?autoplay=1&listType=search&list=Chris Vickery Jokers and Thieves\"" frameborder=\""0\"" allowfullscreen></iframe>",275.24373,49.38426
"5683","Joe Rogan","Fear Factor (Shiny Happy Jihad)",0.533155191868579,0.510993041906313,1.04337074704498,"<br><iframe width=\""200\"" height=\""150\"" src=\""http://www.youtube.com/embed?autoplay=1&listType=search&list=Joe Rogan Fear Factor (Shiny Happy Jihad)\"" frameborder=\""0\"" allowfullscreen></iframe>",285.82582,40.73197
"5684","B.o.B","Nothin' On You [feat. Bruno Mars] (Album Version)",1,0.768223624915469,1.30170430531869,"<br><iframe width=\""200\"" height=\""150\"" src=\""http://www.youtube.com/embed?autoplay=1&listType=search&list=B.o.B Nothin' On You [feat. Bruno Mars] (Album Version)\"" frameborder=\""0\"" allowfullscreen></iframe>",282.971,38.8991
"5827","Tommy James & The Shondells","Crimson And Clover",0.69724144513838,0.620392055892929,1.12387229738918,"<br><iframe width=\""200\"" height=\""150\"" src=\""http://www.youtube.com/embed?autoplay=1&listType=search&list=Tommy James & The Shondells Crimson And Clover\"" frameborder=\""0\"" allowfullscreen></iframe>",275.80556,39.75911
"5828","Tommy James And The Shondells","Out Of The Blue",0.641228738484896,0.620392055892929,1.0335863143218,"<br><iframe width=\""200\"" height=\""150\"" src=\""http://www.youtube.com/embed?autoplay=1&listType=search&list=Tommy James And The Shondells Out Of The Blue\"" frameborder=\""0\"" allowfullscreen></iframe>",275.80556,39.75911
"5830","Tommy James And The Shondells","Gettin' Together",0.657161336388398,0.620392055892929,1.05926781322586,"<br><iframe width=\""200\"" height=\""150\"" src=\""http://www.youtube.com/embed?autoplay=1&listType=search&list=Tommy James And The Shondells Gettin' Together\"" frameborder=\""0\"" allowfullscreen></iframe>",275.80556,39.75911
"5875","Modern Lovers","She cracked",0.800078985844132,0.620541381705321,1.28932414409724,"<br><iframe width=\""200\"" height=\""150\"" src=\""http://www.youtube.com/embed?autoplay=1&listType=search&list=Modern Lovers She cracked\"" frameborder=\""0\"" allowfullscreen></iframe>",288.91132,42.31256
"5910","Sergio Franchi","Silent Night",0.641771193286551,0.421960437310995,1.52092740584007,"<br><iframe width=\""200\"" height=\""150\"" src=\""http://www.youtube.com/embed?autoplay=1&listType=search&list=Sergio Franchi Silent Night\"" frameborder=\""0\"" allowfullscreen></iframe>",12.57347,42.50382
"5912","Sergio Franchi","Oh Little Town Of Bethlehem",0.425304241720425,0.421960437310995,1.00792445005209,"<br><iframe width=\""200\"" height=\""150\"" src=\""http://www.youtube.com/embed?autoplay=1&listType=search&list=Sergio Franchi Oh Little Town Of Bethlehem\"" frameborder=\""0\"" allowfullscreen></iframe>",12.57347,42.50382
"5946","Crabby Appleton","Go Back",0.570105930058388,0.416184081205244,1.36984078873799,"<br><iframe width=\""200\"" height=\""150\"" src=\""http://www.youtube.com/embed?autoplay=1&listType=search&list=Crabby Appleton Go Back\"" frameborder=\""0\"" allowfullscreen></iframe>",264.15498,37.16793
"5951","King Curtis","A Whiter Shade Of Pale (Live @ Fillmore West)",0.662493160819622,0.575674218481053,1.15081262900334,"<br><iframe width=\""200\"" height=\""150\"" src=\""http://www.youtube.com/embed?autoplay=1&listType=search&list=King Curtis A Whiter Shade Of Pale (Live @ Fillmore West)\"" frameborder=\""0\"" allowfullscreen></iframe>",262.67075,32.74863
"5957","Frederick Knight","I've Been Lonely (For So Long)",0.636287224427332,0.422019321100522,1.50772060096219,"<br><iframe width=\""200\"" height=\""150\"" src=\""http://www.youtube.com/embed?autoplay=1&listType=search&list=Frederick Knight I've Been Lonely (For So Long)\"" frameborder=\""0\"" allowfullscreen></iframe>",273.1885,33.52029
"5992","The Cars","Drive",0.833006242780701,0.789098031505672,1.05564354430241,"<br><iframe width=\""200\"" height=\""150\"" src=\""http://www.youtube.com/embed?autoplay=1&listType=search&list=The Cars Drive\"" frameborder=\""0\"" allowfullscreen></iframe>",288.91132,42.31256
"5993","Tad","Stumblin' Man (Album)",0.743943725223349,0.595166584990072,1.24997562696797,"<br><iframe width=\""200\"" height=\""150\"" src=\""http://www.youtube.com/embed?autoplay=1&listType=search&list=Tad Stumblin' Man (Album)\"" frameborder=\""0\"" allowfullscreen></iframe>",237.67056,47.60356
"6118","Thomas Dolby","Screen Kiss",0.647454210478015,0.641354080934361,1.00951132880416,"<br><iframe width=\""200\"" height=\""150\"" src=\""http://www.youtube.com/embed?autoplay=1&listType=search&list=Thomas Dolby Screen Kiss\"" frameborder=\""0\"" allowfullscreen></iframe>",31.25536,30.08374
"6179","Atreyu","Nevada's Grace (Album Version)",0.828087508844709,0.821844255124002,1.00759663851366,"<br><iframe width=\""200\"" height=\""150\"" src=\""http://www.youtube.com/embed?autoplay=1&listType=search&list=Atreyu Nevada's Grace (Album Version)\"" frameborder=\""0\"" allowfullscreen></iframe>",242.23495,33.6671
"6272","Dictators","Weekend",0.697651731535399,0.588379457516533,1.18571735063642,"<br><iframe width=\""200\"" height=\""150\"" src=\""http://www.youtube.com/embed?autoplay=1&listType=search&list=Dictators Weekend\"" frameborder=\""0\"" allowfullscreen></iframe>",285.992882,40.71455
"6298","Cross Country","In The Midnight Hour",0.405115721691386,0.375195664321879,1.07974521087173,"<br><iframe width=\""200\"" height=\""150\"" src=\""http://www.youtube.com/embed?autoplay=1&listType=search&list=Cross Country In The Midnight Hour\"" frameborder=\""0\"" allowfullscreen></iframe>",238.92113,38.8962
"6305","The Distillers","Oh Serena",0.76707484223113,0.681090691742559,1.12624478873523,"<br><iframe width=\""200\"" height=\""150\"" src=\""http://www.youtube.com/embed?autoplay=1&listType=search&list=The Distillers Oh Serena\"" frameborder=\""0\"" allowfullscreen></iframe>",264.15498,37.16793
"6341","Jimmy Wyble","No More Blues",0.266955186275539,0.262850216278607,1.01561714521315,"<br><iframe width=\""200\"" height=\""150\"" src=\""http://www.youtube.com/embed?autoplay=1&listType=search&list=Jimmy Wyble No More Blues\"" frameborder=\""0\"" allowfullscreen></iframe>",266.07062,29.89932
"6381","William Coulter","The Painter And The Magician",0.570105930058388,0.507862067492449,1.12256056624442,"<br><iframe width=\""200\"" height=\""150\"" src=\""http://www.youtube.com/embed?autoplay=1&listType=search&list=William Coulter The Painter And The Magician\"" frameborder=\""0\"" allowfullscreen></iframe>",240.72977,37.27188
"6388","Ambient Music Therapy","Voice of Angels Drone for Spiritual Well Being",0.340922755864378,0.335311341530873,1.01673493747001,"<br><iframe width=\""200\"" height=\""150\"" src=\""http://www.youtube.com/embed?autoplay=1&listType=search&list=Ambient Music Therapy Voice of Angels Drone for Spiritual Well Being\"" frameborder=\""0\"" allowfullscreen></iframe>",285.992882,40.71455
"6427","Circle Jerks","Paid Vacation",0.779527168290094,0.666522676566775,1.16954335643222,"<br><iframe width=\""200\"" height=\""150\"" src=\""http://www.youtube.com/embed?autoplay=1&listType=search&list=Circle Jerks Paid Vacation\"" frameborder=\""0\"" allowfullscreen></iframe>",241.75468,34.05349
"6428","Circle Jerks","Group Sex",0.746432679130056,0.666522676566775,1.1198908984986,"<br><iframe width=\""200\"" height=\""150\"" src=\""http://www.youtube.com/embed?autoplay=1&listType=search&list=Circle Jerks Group Sex\"" frameborder=\""0\"" allowfullscreen></iframe>",241.75468,34.05349
"6460","2raumwohnung","Lachen und weinen",0.667506138834522,0.66455997860434,1.00443324955615,"<br><iframe width=\""200\"" height=\""150\"" src=\""http://www.youtube.com/embed?autoplay=1&listType=search&list=2raumwohnung Lachen und weinen\"" frameborder=\""0\"" allowfullscreen></iframe>",13.37698,52.51607
"6616","Keb'Mo'","Anybody Seen My Girl",0.662493160819622,0.632130913015097,1.0480315820337,"<br><iframe width=\""200\"" height=\""150\"" src=\""http://www.youtube.com/embed?autoplay=1&listType=search&list=Keb'Mo' Anybody Seen My Girl\"" frameborder=\""0\"" allowfullscreen></iframe>",241.75468,34.05349
"6618","Keb' Mo'","Dangerous Mood",0.669413098138441,0.632130913015097,1.05897858237231,"<br><iframe width=\""200\"" height=\""150\"" src=\""http://www.youtube.com/embed?autoplay=1&listType=search&list=Keb' Mo' Dangerous Mood\"" frameborder=\""0\"" allowfullscreen></iframe>",241.75468,34.05349
"6713","Tim Hughes","Dance",0.699867742729158,0.642355325436738,1.08953365063692,"<br><iframe width=\""200\"" height=\""150\"" src=\""http://www.youtube.com/embed?autoplay=1&listType=search&list=Tim Hughes Dance\"" frameborder=\""0\"" allowfullscreen></iframe>",275.24373,49.38426
"6988","Semisonic","Secret Smile",0.77523536248439,0.712744899649836,1.08767577693682,"<br><iframe width=\""200\"" height=\""150\"" src=\""http://www.youtube.com/embed?autoplay=1&listType=search&list=Semisonic Secret Smile\"" frameborder=\""0\"" allowfullscreen></iframe>",266.73507,44.97903
"6996","Nickelback","If Today Was Your Last Day (Album Version)",0.984346738534144,0.847451713217991,1.1615372571451,"<br><iframe width=\""200\"" height=\""150\"" src=\""http://www.youtube.com/embed?autoplay=1&listType=search&list=Nickelback If Today Was Your Last Day (Album Version)\"" frameborder=\""0\"" allowfullscreen></iframe>",236.88597,49.26044
"7074","Taste","On The Boards",0.698708461673052,0.556997727619772,1.25441887287199,"<br><iframe width=\""200\"" height=\""150\"" src=\""http://www.youtube.com/embed?autoplay=1&listType=search&list=Taste On The Boards\"" frameborder=\""0\"" allowfullscreen></iframe>",351.75945,53.41961
"7332","Jimmy Wakely","Beautiful Brown eyes",0.46264318259167,0.394138539845893,1.17380853639069,"<br><iframe width=\""200\"" height=\""150\"" src=\""http://www.youtube.com/embed?autoplay=1&listType=search&list=Jimmy Wakely Beautiful Brown eyes\"" frameborder=\""0\"" allowfullscreen></iframe>",265.97022,34.31109
"7445","Sonny James","I'll Never Find Another You",0.623037475551179,0.503523666754066,1.23735489846496,"<br><iframe width=\""200\"" height=\""150\"" src=\""http://www.youtube.com/embed?autoplay=1&listType=search&list=Sonny James I'll Never Find Another You\"" frameborder=\""0\"" allowfullscreen></iframe>",272.17172,34.27798
"7473","Muse","Exogenesis: Symphony Part 1 [Overture]",0.931346488269512,0.92903028744116,1.00249313812441,"<br><iframe width=\""200\"" height=\""150\"" src=\""http://www.youtube.com/embed?autoplay=1&listType=search&list=Muse Exogenesis: Symphony Part 1 [Overture]\"" frameborder=\""0\"" allowfullscreen></iframe>",357.76999,54.31407
"7524","Marcie Blane","Bobby's Girl (Previously Unreleased Demo - Stereo)",0.630508572302389,0.421181869278876,1.49699837123072,"<br><iframe width=\""200\"" height=\""150\"" src=\""http://www.youtube.com/embed?autoplay=1&listType=search&list=Marcie Blane Bobby's Girl (Previously Unreleased Demo - Stereo)\"" frameborder=\""0\"" allowfullscreen></iframe>",286.05112,40.65507
"7538","Grizzly Bear","Little Brother",0.88253015163253,0.760636111943095,1.16025276446322,"<br><iframe width=\""200\"" height=\""150\"" src=\""http://www.youtube.com/embed?autoplay=1&listType=search&list=Grizzly Bear Little Brother\"" frameborder=\""0\"" allowfullscreen></iframe>",286.05112,40.65507
"7627","Lonnie Brooks","Two Guitars Shuffle (take 1)",0.464335377379483,0.44219614052356,1.05006655379152,"<br><iframe width=\""200\"" height=\""150\"" src=\""http://www.youtube.com/embed?autoplay=1&listType=search&list=Lonnie Brooks Two Guitars Shuffle (take 1)\"" frameborder=\""0\"" allowfullscreen></iframe>",267.88211,30.76753
"7652","Little Eva","The Loco-Motion",0.928367113413782,0.590131051895343,1.57315415013685,"<br><iframe width=\""200\"" height=\""150\"" src=\""http://www.youtube.com/embed?autoplay=1&listType=search&list=Little Eva The Loco-Motion\"" frameborder=\""0\"" allowfullscreen></iframe>",279.98045,35.21962
"7677","Jackie Davis","Love Is Just Around The Corner (1996 Digital Remaster)",0.585979766109278,0.461394359849784,1.27001935242567,"<br><iframe width=\""200\"" height=\""150\"" src=\""http://www.youtube.com/embed?autoplay=1&listType=search&list=Jackie Davis Love Is Just Around The Corner (1996 Digital Remaster)\"" frameborder=\""0\"" allowfullscreen></iframe>",278.3442,30.33138
"7771","Kurupt","Girls All Pause",0.762646815300286,0.632852016574829,1.20509502273208,"<br><iframe width=\""200\"" height=\""150\"" src=\""http://www.youtube.com/embed?autoplay=1&listType=search&list=Kurupt Girls All Pause\"" frameborder=\""0\"" allowfullscreen></iframe>",284.83763,39.95227
"7913","Otis Taylor","Round and Round",0.592333567270846,0.590792957181106,1.00260769880719,"<br><iframe width=\""200\"" height=\""150\"" src=\""http://www.youtube.com/embed?autoplay=1&listType=search&list=Otis Taylor Round and Round\"" frameborder=\""0\"" allowfullscreen></iframe>",272.36759,41.88415
"7923","Bobaflex","Turn The Heat Up",0.660680597725912,0.588781959369407,1.1221142007026,"<br><iframe width=\""200\"" height=\""150\"" src=\""http://www.youtube.com/embed?autoplay=1&listType=search&list=Bobaflex Turn The Heat Up\"" frameborder=\""0\"" allowfullscreen></iframe>",277.55463,38.41982
"7924","Bobaflex","Medicine",0.637016451863874,0.588781959369407,1.08192250412381,"<br><iframe width=\""200\"" height=\""150\"" src=\""http://www.youtube.com/embed?autoplay=1&listType=search&list=Bobaflex Medicine\"" frameborder=\""0\"" allowfullscreen></iframe>",277.55463,38.41982
"7988","Ty Herndon","A Man Holdin' On (To A Woman Lettin' Go)",0.696183226574429,0.654644974645846,1.06345157075567,"<br><iframe width=\""200\"" height=\""150\"" src=\""http://www.youtube.com/embed?autoplay=1&listType=search&list=Ty Herndon A Man Holdin' On (To A Woman Lettin' Go)\"" frameborder=\""0\"" allowfullscreen></iframe>",271.29693,32.36503
"8072","Donny Hathaway","This Christmas (LP Version)",0.997758396340269,0.657406765298449,1.51771847964982,"<br><iframe width=\""200\"" height=\""150\"" src=\""http://www.youtube.com/embed?autoplay=1&listType=search&list=Donny Hathaway This Christmas (LP Version)\"" frameborder=\""0\"" allowfullscreen></iframe>",272.36759,41.88415
"8248","Blackalicious","World Of Vibrations (Album Version)",0.721502075052071,0.697113662712875,1.03498484342465,"<br><iframe width=\""200\"" height=\""150\"" src=\""http://www.youtube.com/embed?autoplay=1&listType=search&list=Blackalicious World Of Vibrations (Album Version)\"" frameborder=\""0\"" allowfullscreen></iframe>",238.25523,38.54666
"8271","Lisa Lynne","Isla del Luna",0.761303218089446,0.605139699964114,1.25806192873248,"<br><iframe width=\""200\"" height=\""150\"" src=\""http://www.youtube.com/embed?autoplay=1&listType=search&list=Lisa Lynne Isla del Luna\"" frameborder=\""0\"" allowfullscreen></iframe>",241.75468,34.05349
"8272","Lisa Lynne","Lake Of Dreams",0.673875572440443,0.605139699964114,1.11358678414324,"<br><iframe width=\""200\"" height=\""150\"" src=\""http://www.youtube.com/embed?autoplay=1&listType=search&list=Lisa Lynne Lake Of Dreams\"" frameborder=\""0\"" allowfullscreen></iframe>",241.75468,34.05349
"8273","Lisa Lynne","Still I Will",0.727891633749133,0.605139699964114,1.20284891867497,"<br><iframe width=\""200\"" height=\""150\"" src=\""http://www.youtube.com/embed?autoplay=1&listType=search&list=Lisa Lynne Still I Will\"" frameborder=\""0\"" allowfullscreen></iframe>",241.75468,34.05349
"8372","The Tragically Hip","Ahead By A Century",0.766174643701339,0.758299703809623,1.01038499666049,"<br><iframe width=\""200\"" height=\""150\"" src=\""http://www.youtube.com/embed?autoplay=1&listType=search&list=The Tragically Hip Ahead By A Century\"" frameborder=\""0\"" allowfullscreen></iframe>",283.52067,44.23153
"8418","Cadacross","Bring Out Your Dead",0.600274215984207,0.521143520329237,1.15184050567295,"<br><iframe width=\""200\"" height=\""150\"" src=\""http://www.youtube.com/embed?autoplay=1&listType=search&list=Cadacross Bring Out Your Dead\"" frameborder=\""0\"" allowfullscreen></iframe>",26.06739,64.95014
"8533","Open Hand","The Ambush",0.618904418184941,0.614887588217189,1.00653262489718,"<br><iframe width=\""200\"" height=\""150\"" src=\""http://www.youtube.com/embed?autoplay=1&listType=search&list=Open Hand The Ambush\"" frameborder=\""0\"" allowfullscreen></iframe>",288.91132,42.31256
"8551","Del Tha Funkee Homosapien","Mistadobalina",0.758973794276447,0.73266031201761,1.0359149824649,"<br><iframe width=\""200\"" height=\""150\"" src=\""http://www.youtube.com/embed?autoplay=1&listType=search&list=Del Tha Funkee Homosapien Mistadobalina\"" frameborder=\""0\"" allowfullscreen></iframe>",237.72698,37.80506
"8593","Cancer Bats","Sabotage",0.726267401029216,0.689800592800107,1.05286572468875,"<br><iframe width=\""200\"" height=\""150\"" src=\""http://www.youtube.com/embed?autoplay=1&listType=search&list=Cancer Bats Sabotage\"" frameborder=\""0\"" allowfullscreen></iframe>",280.61467,43.64856
"8650","MNANAnegarm","Ur SjNANAlslig DNANAd",0.653783204260484,0.614261763857657,1.06433973710919,"<br><iframe width=\""200\"" height=\""150\"" src=\""http://www.youtube.com/embed?autoplay=1&listType=search&list=MNANAnegarm Ur SjNANAlslig DNANAd\"" frameborder=\""0\"" allowfullscreen></iframe>",18.70249,59.75952
"8726","Hank Penny","Peroxide Blond",0.603287008250305,0.445854631359511,1.35310248188013,"<br><iframe width=\""200\"" height=\""150\"" src=\""http://www.youtube.com/embed?autoplay=1&listType=search&list=Hank Penny Peroxide Blond\"" frameborder=\""0\"" allowfullscreen></iframe>",273.1885,33.52029
"8727","Hank Penny","Wang Wang Blues",0.507346896842495,0.445854631359511,1.13791998817076,"<br><iframe width=\""200\"" height=\""150\"" src=\""http://www.youtube.com/embed?autoplay=1&listType=search&list=Hank Penny Wang Wang Blues\"" frameborder=\""0\"" allowfullscreen></iframe>",273.1885,33.52029
"8741","No Address","Pretty Girl (Amended Version)",0.51142432568646,0.507430629055104,1.00787042878904,"<br><iframe width=\""200\"" height=\""150\"" src=\""http://www.youtube.com/embed?autoplay=1&listType=search&list=No Address Pretty Girl (Amended Version)\"" frameborder=\""0\"" allowfullscreen></iframe>",275.71935,30.43977
"8774","Arsonists Get All The Girls","Violence in Fluid Triceratops",0.731473357049658,0.725402920778495,1.00836836480428,"<br><iframe width=\""200\"" height=\""150\"" src=\""http://www.youtube.com/embed?autoplay=1&listType=search&list=Arsonists Get All The Girls Violence in Fluid Triceratops\"" frameborder=\""0\"" allowfullscreen></iframe>",237.96905,36.97402
"8775","Arsonists Get All The Girls","Skiff For The Suits",0.755068276715358,0.725402920778495,1.04089500481336,"<br><iframe width=\""200\"" height=\""150\"" src=\""http://www.youtube.com/embed?autoplay=1&listType=search&list=Arsonists Get All The Girls Skiff For The Suits\"" frameborder=\""0\"" allowfullscreen></iframe>",237.96905,36.97402
"8792","Abner Burnette","The Kid's Last Night (heaven is in the mountain)",0.633647209762319,0.22419313842204,2.82634524063572,"<br><iframe width=\""200\"" height=\""150\"" src=\""http://www.youtube.com/embed?autoplay=1&listType=search&list=Abner Burnette The Kid's Last Night (heaven is in the mountain)\"" frameborder=\""0\"" allowfullscreen></iframe>",241.75468,34.05349
"8964","Jim Chappell","Adventure No. 8",0.572920147946523,0.520204911317455,1.10133552275691,"<br><iframe width=\""200\"" height=\""150\"" src=\""http://www.youtube.com/embed?autoplay=1&listType=search&list=Jim Chappell Adventure No. 8\"" frameborder=\""0\"" allowfullscreen></iframe>",264.15498,37.16793
"8966","Jim Chappell","Moonlight Boy",0.59448337860443,0.520204911317455,1.14278693966741,"<br><iframe width=\""200\"" height=\""150\"" src=\""http://www.youtube.com/embed?autoplay=1&listType=search&list=Jim Chappell Moonlight Boy\"" frameborder=\""0\"" allowfullscreen></iframe>",264.15498,37.16793
"9043","Geddy Lee","Runaway Train (LP Version)",0.661445222902535,0.509021261059178,1.29944517744935,"<br><iframe width=\""200\"" height=\""150\"" src=\""http://www.youtube.com/embed?autoplay=1&listType=search&list=Geddy Lee Runaway Train (LP Version)\"" frameborder=\""0\"" allowfullscreen></iframe>",280.5862,43.7698
"9051","Rick Astley","Never Gonna Give You Up",0.864248830588454,0.754917645450823,1.14482531412064,"<br><iframe width=\""200\"" height=\""150\"" src=\""http://www.youtube.com/embed?autoplay=1&listType=search&list=Rick Astley Never Gonna Give You Up\"" frameborder=\""0\"" allowfullscreen></iframe>",357.36735,53.45644
"9065","Eleanor McEvoy","Sophie",0.70961095284184,0.552742313522791,1.28380067073078,"<br><iframe width=\""200\"" height=\""150\"" src=\""http://www.youtube.com/embed?autoplay=1&listType=search&list=Eleanor McEvoy Sophie\"" frameborder=\""0\"" allowfullscreen></iframe>",353.75047,53.34376
"9178","Vex'd","Disposition (feat. Jest)",0.633809245209902,0.407924930361,1.55373991152981,"<br><iframe width=\""200\"" height=\""150\"" src=\""http://www.youtube.com/embed?autoplay=1&listType=search&list=Vex'd Disposition (feat. Jest)\"" frameborder=\""0\"" allowfullscreen></iframe>",359.87286,51.50632
"9179","Vex'd","Oceans",0.605331887153087,0.585434009719604,1.03398824991909,"<br><iframe width=\""200\"" height=\""150\"" src=\""http://www.youtube.com/embed?autoplay=1&listType=search&list=Vex'd Oceans\"" frameborder=\""0\"" allowfullscreen></iframe>",359.87286,51.50632
"9254","Nestor Torres","Peace With Myself",0.503381236206319,0.485921285721115,1.03593164365972,"<br><iframe width=\""200\"" height=\""150\"" src=\""http://www.youtube.com/embed?autoplay=1&listType=search&list=Nestor Torres Peace With Myself\"" frameborder=\""0\"" allowfullscreen></iframe>",279.76258,25.72898
"9405","H-Town","Here We Go Again",0.636273546404841,0.614275842953087,1.03581079038694,"<br><iframe width=\""200\"" height=\""150\"" src=\""http://www.youtube.com/embed?autoplay=1&listType=search&list=H-Town Here We Go Again\"" frameborder=\""0\"" allowfullscreen></iframe>",264.63022,29.76045
"9423","Kathleen Madigan","Religion",0.660401038391478,0.479864679786698,1.37622347759587,"<br><iframe width=\""200\"" height=\""150\"" src=\""http://www.youtube.com/embed?autoplay=1&listType=search&list=Kathleen Madigan Religion\"" frameborder=\""0\"" allowfullscreen></iframe>",241.75468,34.05349
"9547","Blessid Union Of Souls","Healing",0.334706549069221,0.282191067745342,1.18609902058017,"<br><iframe width=\""200\"" height=\""150\"" src=\""http://www.youtube.com/embed?autoplay=1&listType=search&list=Blessid Union Of Souls Healing\"" frameborder=\""0\"" allowfullscreen></iframe>",275.49531,39.10644
"9609","Paul Carrack","Dedicated",0.598320149326307,0.591602005728684,1.01135584993385,"<br><iframe width=\""200\"" height=\""150\"" src=\""http://www.youtube.com/embed?autoplay=1&listType=search&list=Paul Carrack Dedicated\"" frameborder=\""0\"" allowfullscreen></iframe>",358.53546,53.38311
"9683","Uman","The White Spirit",0.55270511390461,0.533504314341737,1.03598996118066,"<br><iframe width=\""200\"" height=\""150\"" src=\""http://www.youtube.com/embed?autoplay=1&listType=search&list=Uman The White Spirit\"" frameborder=\""0\"" allowfullscreen></iframe>",4.47684,50.50101
"9708","Byther Smith","So Unhappy",0.535575222297417,0.465194733342488,1.15129253173018,"<br><iframe width=\""200\"" height=\""150\"" src=\""http://www.youtube.com/embed?autoplay=1&listType=search&list=Byther Smith So Unhappy\"" frameborder=\""0\"" allowfullscreen></iframe>",269.89215,31.55379
"9711","Jonn Serrie","Gentle; the Night (from And the Stars Go With You)",0.712791486983351,0.531010825942426,1.34232948211236,"<br><iframe width=\""200\"" height=\""150\"" src=\""http://www.youtube.com/embed?autoplay=1&listType=search&list=Jonn Serrie Gentle; the Night (from And the Stars Go With You)\"" frameborder=\""0\"" allowfullscreen></iframe>",275.60889,33.74831
"9712","Jonn Serrie","Nostalgia for Infinity",0.539536826284304,0.531010825942426,1.01605617046836,"<br><iframe width=\""200\"" height=\""150\"" src=\""http://www.youtube.com/embed?autoplay=1&listType=search&list=Jonn Serrie Nostalgia for Infinity\"" frameborder=\""0\"" allowfullscreen></iframe>",275.60889,33.74831
"9787","Cali","C'est Toujours Le Matin",0.654800662436382,0.616884544036563,1.06146388131516,"<br><iframe width=\""200\"" height=\""150\"" src=\""http://www.youtube.com/embed?autoplay=1&listType=search&list=Cali C'est Toujours Le Matin\"" frameborder=\""0\"" allowfullscreen></iframe>",2.38596,42.54843
"9885","Mindy McCready","Guys Do It All The Time",0.729612115172794,0.679292184443723,1.07407700527319,"<br><iframe width=\""200\"" height=\""150\"" src=\""http://www.youtube.com/embed?autoplay=1&listType=search&list=Mindy McCready Guys Do It All The Time\"" frameborder=\""0\"" allowfullscreen></iframe>",278.45894,27.9758
